
{
  "TODO": "Please prepare the complete list of all cities",
  "cities": [
    {"name": "Bangalore", "aliases": ["Bengaluru", "Bangaluru"], "latitude": 12.9716, "longitude": 77.5946},
    {"name": "Mumbai", "aliases": ["Bombay"], "latitude": 19.0760, "longitude": 72.8777},
    {"name": "Delhi", "aliases": ["New Delhi", "Old Delhi"], "latitude": 28.6139, "longitude": 77.2090},
    {"name": "Chennai", "aliases": ["Madras"], "latitude": 13.0827, "longitude": 80.2707},
    {"name": "Kolkata", "aliases": ["Calcutta"], "latitude": 22.5726, "longitude": 88.3639},
    {"name": "Hyderabad", "aliases": [], "latitude": 17.3850, "longitude": 78.4867},
    {"name": "Pune", "aliases": ["Poona"], "latitude": 18.5204, "longitude": 73.8567},
    {"name": "Ahmedabad", "aliases": [], "latitude": 23.0225, "longitude": 72.5714},
    {"name": "Jaipur", "aliases": [], "latitude": 26.9124, "longitude": 75.7873},
    {"name": "Lucknow", "aliases": [], "latitude": 26.8467, "longitude": 80.9462},
    {"name": "Kanpur", "aliases": ["Cawnpore"], "latitude": 26.4499, "longitude": 80.3319},
    {"name": "Nagpur", "aliases": [], "latitude": 21.1458, "longitude": 79.0882},
    {"name": "Indore", "aliases": [], "latitude": 22.7196, "longitude": 75.8577},
    {"name": "Bhopal", "aliases": [], "latitude": 23.2599, "longitude": 77.4126},
    {"name": "Patna", "aliases": [], "latitude": 25.6093, "longitude": 85.1376},
    {"name": "Varanasi", "aliases": ["Benares", "Banaras", "Kashi"], "latitude": 25.3176, "longitude": 83.0064},
    {"name": "Mysore", "aliases": ["Mysuru"], "latitude": 12.2958, "longitude": 76.6394},
    {"name": "Thiruvananthapuram", "aliases": ["Trivandrum"], "latitude": 8.5241, "longitude": 76.9366},
    {"name": "Coimbatore", "aliases": [], "latitude": 11.0168, "longitude": 76.9558},
    {"name": "Madurai", "aliases": [], "latitude": 9.9252, "longitude": 78.1198},
    {"name": "Visakhapatnam", "aliases": ["Vizag"], "latitude": 17.6868, "longitude": 83.2185},
    {"name": "Agra", "aliases": [], "latitude": 27.1767, "longitude": 78.0081},
    {"name": "Allahabad", "aliases": ["Prayagraj"], "latitude": 25.4358, "longitude": 81.8463},
    {"name": "Amritsar", "aliases": [], "latitude": 31.6340, "longitude": 74.8723},
    {"name": "Srinagar", "aliases": [], "latitude": 34.0837, "longitude": 74.7973},
    {"name": "Shimla", "aliases": ["Simla"], "latitude": 31.1048, "longitude": 77.1734},
    {"name": "Dehradun", "aliases": [], "latitude": 30.3165, "longitude": 78.0322},
    {"name": "Gwalior", "aliases": [], "latitude": 26.2183, "longitude": 78.1828},
    {"name": "Jodhpur", "aliases": [], "latitude": 26.2389, "longitude": 73.0243},
    {"name": "Udaipur", "aliases": [], "latitude": 24.5854, "longitude": 73.7125},
    {"name": "Mangalore", "aliases": ["Mangaluru"], "latitude": 12.9141, "longitude": 74.8560},
    {"name": "Kochi", "aliases": ["Cochin"], "latitude": 9.9312, "longitude": 76.2673},
    {"name": "Calicut", "aliases": ["Kozhikode"], "latitude": 11.2588, "longitude": 75.7804},
    {"name": "Vijayawada", "aliases": ["Bezwada"], "latitude": 16.5062, "longitude": 80.6480},
    {"name": "Tirupati", "aliases": [], "latitude": 13.6288, "longitude": 79.4192},
    {"name": "Ujjain", "aliases": [], "latitude": 23.1765, "longitude": 75.7885},
    {"name": "Nashik", "aliases": ["Nasik"], "latitude": 19.9975, "longitude": 73.7898},
    {"name": "Surat", "aliases": [], "latitude": 21.1702, "longitude": 72.8311},
    {"name": "Baroda", "aliases": ["Vadodara"], "latitude": 22.3072, "longitude": 73.1812},
    {"name": "Rajkot", "aliases": [], "latitude": 22.3039, "longitude": 70.8022},
    {"name": "Jabalpur", "aliases": ["Jubbulpore"], "latitude": 23.1815, "longitude": 79.9864},
    {"name": "Ranchi", "aliases": [], "latitude": 23.3441, "longitude": 85.3096},
    {"name": "Cuttack", "aliases": [], "latitude": 20.4625, "longitude": 85.8830},
    {"name": "Bhubaneswar", "aliases": [], "latitude": 20.2961, "longitude": 85.8245},
    {"name": "Guwahati", "aliases": ["Gauhati"], "latitude": 26.1445, "longitude": 91.7362},
    {"name": "Lahore", "aliases": [], "latitude": 31.5497, "longitude": 74.3436},
    {"name": "Karachi", "aliases": [], "latitude": 24.8607, "longitude": 67.0011},
    {"name": "Colombo", "aliases": [], "latitude": 6.9271, "longitude": 79.8612},
    {"name": "Dhaka", "aliases": ["Dacca"], "latitude": 23.8103, "longitude": 90.4125},
    {"name": "Rangoon", "aliases": ["Yangon"], "latitude": 16.8661, "longitude": 96.1951}
  ]
}
